[
  {
    "id": "gamescom-opening-night-live",
    "title": "Gamescom Opening Night Live 2025",
    "venue": "Koelnmesse Hall 11",
    "date": "2025-08-19",
    "time": "20:00",
    "start": "2025-08-19T20:00:00",
    "end": "2025-08-19T22:30:00",
    "price": "Free with Gamescom ticket",
    "description": "Geoff Keighley hosts the official kickoff with world premieres",
    "lat": 50.9473,
    "lng": 6.9838,
    "category": "opening"
  },
  {
    "id": "devcom-day-1",
    "title": "Devcom 2025 - Day 1",
    "venue": "Koelnmesse Congress Centre East",
    "date": "2025-08-17",
    "time": "09:00",
    "start": "2025-08-17T09:00:00",
    "end": "2025-08-17T18:00:00",
    "price": "€449",
    "description": "Europe's leading game developer conference",
    "lat": 50.9473,
    "lng": 6.9838,
    "category": "conference"
  },
  {
    "id": "devcom-day-2",
    "title": "Devcom 2025 - Day 2",
    "venue": "Koelnmesse Congress Centre East",
    "date": "2025-08-18",
    "time": "09:00",
    "start": "2025-08-18T09:00:00",
    "end": "2025-08-18T18:00:00",
    "price": "€449",
    "description": "Workshops and masterclasses",
    "lat": 50.9473,
    "lng": 6.9838,
    "category": "conference"
  },
  {
    "id": "xbox-fanfest-2025",
    "title": "Xbox FanFest 2025",
    "venue": "Gloria Theater",
    "date": "2025-08-20",
    "time": "19:00",
    "start": "2025-08-20T19:00:00",
    "end": "2025-08-21T01:00:00",
    "price": "Invite only",
    "description": "Exclusive Xbox celebration with hands-on gameplay",
    "lat": 50.9383,
    "lng": 6.9580,
    "category": "party"
  },
  {
    "id": "playstation-experience",
    "title": "PlayStation Experience Lounge",
    "venue": "Hyatt Regency Cologne",
    "date": "2025-08-20",
    "time": "18:00",
    "start": "2025-08-20T18:00:00",
    "end": "2025-08-20T23:00:00",
    "price": "VIP invite only",
    "description": "Premium PlayStation showcase with PSVR2 demos",
    "lat": 50.9413,
    "lng": 6.9736,
    "category": "vip"
  },
  {
    "id": "indie-arena-booth-party",
    "title": "Indie Arena Booth Afterparty",
    "venue": "Stadtgarten",
    "date": "2025-08-21",
    "time": "20:00",
    "start": "2025-08-21T20:00:00",
    "end": "2025-08-22T02:00:00",
    "price": "€15",
    "description": "Celebrate indie gaming with developers",
    "lat": 50.9229,
    "lng": 6.9302,
    "category": "party"
  },
  {
    "id": "nintendo-direct-viewing",
    "title": "Nintendo Direct @ Gamescom",
    "venue": "Cinedom Cologne",
    "date": "2025-08-19",
    "time": "16:00",
    "start": "2025-08-19T16:00:00",
    "end": "2025-08-19T18:00:00",
    "price": "€12",
    "description": "Watch Nintendo Direct on the big screen",
    "lat": 50.9497,
    "lng": 6.9442,
    "category": "viewing"
  },
  {
    "id": "ubisoft-forward-live",
    "title": "Ubisoft Forward Live",
    "venue": "Musical Dome Cologne",
    "date": "2025-08-20",
    "time": "21:00",
    "start": "2025-08-20T21:00:00",
    "end": "2025-08-20T23:00:00",
    "price": "Free (registration required)",
    "description": "Live presentation of upcoming Ubisoft titles",
    "lat": 50.9513,
    "lng": 6.9778,
    "category": "presentation"
  },
  {
    "id": "ea-play-day-1",
    "title": "EA Play 2025 - Day 1",
    "venue": "Koelnmesse Hall 8",
    "date": "2025-08-21",
    "time": "10:00",
    "start": "2025-08-21T10:00:00",
    "end": "2025-08-21T20:00:00",
    "price": "Free with Gamescom ticket",
    "description": "Play EA Sports FC 25 and more",
    "lat": 50.9473,
    "lng": 6.9838,
    "category": "showcase"
  },
  {
    "id": "ea-play-day-2",
    "title": "EA Play 2025 - Day 2",
    "venue": "Koelnmesse Hall 8",
    "date": "2025-08-22",
    "time": "10:00",
    "start": "2025-08-22T10:00:00",
    "end": "2025-08-22T20:00:00",
    "price": "Free with Gamescom ticket",
    "description": "EA Games showcase continues",
    "lat": 50.9473,
    "lng": 6.9838,
    "category": "showcase"
  },
  {
    "id": "twitch-party-2025",
    "title": "Twitch Party Gamescom 2025",
    "venue": "Bootshaus",
    "date": "2025-08-22",
    "time": "22:00",
    "start": "2025-08-22T22:00:00",
    "end": "2025-08-23T04:00:00",
    "price": "Invite only",
    "description": "The legendary Twitch party",
    "lat": 50.962,
    "lng": 6.996,
    "category": "party"
  },
  {
    "id": "epic-games-mixer",
    "title": "Epic Games Developer Mixer",
    "venue": "Die Wohngemeinschaft",
    "date": "2025-08-18",
    "time": "19:00",
    "start": "2025-08-18T19:00:00",
    "end": "2025-08-18T23:00:00",
    "price": "Developer pass required",
    "description": "Network with Unreal Engine developers",
    "lat": 50.9356,
    "lng": 6.9397,
    "category": "networking"
  },
  {
    "id": "retro-gaming-night",
    "title": "Retro Gaming Night",
    "venue": "Arcade Cologne",
    "date": "2025-08-19",
    "time": "18:00",
    "start": "2025-08-19T18:00:00",
    "end": "2025-08-20T00:00:00",
    "price": "€20",
    "description": "Classic arcade games and retro consoles",
    "lat": 50.9385,
    "lng": 6.9594,
    "category": "party"
  },
  {
    "id": "women-in-games-brunch",
    "title": "Women in Games Networking Brunch",
    "venue": "Excelsior Hotel Ernst",
    "date": "2025-08-20",
    "time": "10:00",
    "start": "2025-08-20T10:00:00",
    "end": "2025-08-20T13:00:00",
    "price": "€45",
    "description": "Connect with women professionals",
    "lat": 50.9383,
    "lng": 6.9511,
    "category": "networking"
  },
  {
    "id": "steam-deck-showcase",
    "title": "Steam Deck Verified Showcase",
    "venue": "Saturn Cologne",
    "date": "2025-08-21",
    "time": "14:00",
    "start": "2025-08-21T14:00:00",
    "end": "2025-08-21T18:00:00",
    "price": "Free",
    "description": "Try the latest Steam Deck games",
    "lat": 50.9406,
    "lng": 6.9572,
    "category": "showcase"
  },
  {
    "id": "bethesda-game-days",
    "title": "Bethesda Game Days",
    "venue": "Marriott Cologne",
    "date": "2025-08-18",
    "time": "11:00",
    "start": "2025-08-18T11:00:00",
    "end": "2025-08-18T20:00:00",
    "price": "Registration required",
    "description": "Exclusive Bethesda gameplay sessions",
    "lat": 50.9474,
    "lng": 6.9766,
    "category": "showcase"
  },
  {
    "id": "speedrun-marathon",
    "title": "Gamescom Speedrun Marathon",
    "venue": "Koelnmesse Hall 10.2",
    "date": "2025-08-22",
    "time": "12:00",
    "start": "2025-08-22T12:00:00",
    "end": "2025-08-22T22:00:00",
    "price": "Free with Gamescom ticket",
    "description": "Watch speedrunners break records live",
    "lat": 50.9473,
    "lng": 6.9838,
    "category": "tournament"
  },
  {
    "id": "square-enix-fan-fest",
    "title": "Square Enix Fan Festival",
    "venue": "Tanzbrunnen",
    "date": "2025-08-21",
    "time": "16:00",
    "start": "2025-08-21T16:00:00",
    "end": "2025-08-21T23:00:00",
    "price": "€35",
    "description": "Final Fantasy and Kingdom Hearts celebration",
    "lat": 50.9478,
    "lng": 6.9716,
    "category": "festival"
  },
  {
    "id": "riot-games-lol-finals",
    "title": "League of Legends Exhibition Match",
    "venue": "Lanxess Arena",
    "date": "2025-08-23",
    "time": "13:00",
    "start": "2025-08-23T13:00:00",
    "end": "2025-08-23T17:00:00",
    "price": "€30-€60",
    "description": "Pro teams exhibition match",
    "lat": 50.9385,
    "lng": 6.9830,
    "category": "esports"
  },
  {
    "id": "riot-valorant-showmatch",
    "title": "Valorant Champions Showmatch",
    "venue": "Lanxess Arena",
    "date": "2025-08-23",
    "time": "18:00",
    "start": "2025-08-23T18:00:00",
    "end": "2025-08-23T21:00:00",
    "price": "€30-€60",
    "description": "Valorant pro showmatch",
    "lat": 50.9385,
    "lng": 6.9830,
    "category": "esports"
  },
  {
    "id": "activision-cod-reveal",
    "title": "Call of Duty 2025 Reveal",
    "venue": "Koelnmesse Hall 7",
    "date": "2025-08-22",
    "time": "15:00",
    "start": "2025-08-22T15:00:00",
    "end": "2025-08-22T17:00:00",
    "price": "Free with badge",
    "description": "World premiere of new Call of Duty",
    "lat": 50.9473,
    "lng": 6.9838,
    "category": "reveal"
  },
  {
    "id": "blizzard-booth-party",
    "title": "Blizzard Entertainment Booth Party",
    "venue": "Koelnmesse Hall 7",
    "date": "2025-08-22",
    "time": "18:00",
    "start": "2025-08-22T18:00:00",
    "end": "2025-08-22T22:00:00",
    "price": "Free with badge",
    "description": "Celebrate Overwatch and Diablo",
    "lat": 50.9473,
    "lng": 6.9838,
    "category": "party"
  },
  {
    "id": "cdpr-cyberpunk-party",
    "title": "CD Projekt Red Night City Party",
    "venue": "Club Bahnhof Ehrenfeld",
    "date": "2025-08-20",
    "time": "21:00",
    "start": "2025-08-20T21:00:00",
    "end": "2025-08-21T03:00:00",
    "price": "Invite only",
    "description": "Cyberpunk themed exclusive party",
    "lat": 50.9516,
    "lng": 6.9183,
    "category": "party"
  },
  {
    "id": "gamepass-insider-meetup",
    "title": "Xbox Game Pass Insider Meetup",
    "venue": "Microsoft Germany Office",
    "date": "2025-08-19",
    "time": "15:00",
    "start": "2025-08-19T15:00:00",
    "end": "2025-08-19T18:00:00",
    "price": "Game Pass Ultimate required",
    "description": "Exclusive preview of Game Pass titles",
    "lat": 50.9419,
    "lng": 6.9732,
    "category": "meetup"
  },
  {
    "id": "bandai-namco-anime",
    "title": "Bandai Namco Anime Game Night",
    "venue": "Japanisches Kulturinstitut",
    "date": "2025-08-21",
    "time": "19:00",
    "start": "2025-08-21T19:00:00",
    "end": "2025-08-21T23:00:00",
    "price": "€25",
    "description": "Dragon Ball and Naruto gaming showcase",
    "lat": 50.9318,
    "lng": 6.9395,
    "category": "showcase"
  },
  {
    "id": "sega-sonic-celebration",
    "title": "SEGA Sonic Anniversary Party",
    "venue": "Odysseum",
    "date": "2025-08-20",
    "time": "16:00",
    "start": "2025-08-20T16:00:00",
    "end": "2025-08-20T22:00:00",
    "price": "€18",
    "description": "Celebrate Sonic with classic and new games",
    "lat": 50.9406,
    "lng": 6.9297,
    "category": "party"
  },
  {
    "id": "unity-unite-day1",
    "title": "Unity Unite Day 1",
    "venue": "Design Post",
    "date": "2025-08-18",
    "time": "10:00",
    "start": "2025-08-18T10:00:00",
    "end": "2025-08-18T18:00:00",
    "price": "Free (registration required)",
    "description": "Unity engine workshops and demos",
    "lat": 50.9711,
    "lng": 6.9440,
    "category": "conference"
  },
  {
    "id": "unity-unite-day2",
    "title": "Unity Unite Day 2",
    "venue": "Design Post",
    "date": "2025-08-19",
    "time": "10:00",
    "start": "2025-08-19T10:00:00",
    "end": "2025-08-19T18:00:00",
    "price": "Free (registration required)",
    "description": "Advanced Unity workshops",
    "lat": 50.9711,
    "lng": 6.9440,
    "category": "conference"
  },
  {
    "id": "capcom-sf6-tournament",
    "title": "Street Fighter 6 Tournament",
    "venue": "Fight Club Cologne",
    "date": "2025-08-22",
    "time": "17:00",
    "start": "2025-08-22T17:00:00",
    "end": "2025-08-22T23:00:00",
    "price": "€20",
    "description": "Official SF6 tournament",
    "lat": 50.9357,
    "lng": 6.9282,
    "category": "tournament"
  },
  {
    "id": "meta-quest-vr-demos",
    "title": "Meta Quest 3 VR Showcase",
    "venue": "Cologne Game Lab",
    "date": "2025-08-19",
    "time": "13:00",
    "start": "2025-08-19T13:00:00",
    "end": "2025-08-19T19:00:00",
    "price": "Free",
    "description": "Try the latest VR experiences",
    "lat": 50.9244,
    "lng": 6.9267,
    "category": "showcase"
  },
  {
    "id": "google-play-games",
    "title": "Google Play Games Showcase",
    "venue": "Google Zukunftswerkstatt",
    "date": "2025-08-20",
    "time": "14:00",
    "start": "2025-08-20T14:00:00",
    "end": "2025-08-20T18:00:00",
    "price": "Free",
    "description": "Mobile and cloud gaming innovations",
    "lat": 50.9489,
    "lng": 6.9439,
    "category": "showcase"
  },
  {
    "id": "game-music-concert",
    "title": "Video Game Music Concert",
    "venue": "Philharmonie Cologne",
    "date": "2025-08-23",
    "time": "20:00",
    "start": "2025-08-23T20:00:00",
    "end": "2025-08-23T22:30:00",
    "price": "€45-€85",
    "description": "Orchestra performs game soundtracks",
    "lat": 50.9321,
    "lng": 6.9472,
    "category": "concert"
  },
  {
    "id": "future-games-show",
    "title": "Future Games Show Live",
    "venue": "MMC Studios",
    "date": "2025-08-21",
    "time": "20:00",
    "start": "2025-08-21T20:00:00",
    "end": "2025-08-21T21:30:00",
    "price": "Free stream",
    "description": "Live broadcast featuring 50+ games",
    "lat": 50.9693,
    "lng": 6.9838,
    "category": "presentation"
  },
  {
    "id": "koch-media-showcase",
    "title": "Prime Matter Showcase",
    "venue": "Carlswerk",
    "date": "2025-08-19",
    "time": "17:00",
    "start": "2025-08-19T17:00:00",
    "end": "2025-08-19T21:00:00",
    "price": "Press/Trade only",
    "description": "Koch Media's premium gaming showcase",
    "lat": 50.9819,
    "lng": 6.9114,
    "category": "showcase"
  },
  {
    "id": "embracer-party",
    "title": "Embracer Group Publisher Party",
    "venue": "Flora Cologne",
    "date": "2025-08-20",
    "time": "20:00",
    "start": "2025-08-20T20:00:00",
    "end": "2025-08-21T01:00:00",
    "price": "Industry invite",
    "description": "THQ Nordic and Deep Silver celebration",
    "lat": 50.9597,
    "lng": 6.9718,
    "category": "party"
  },
  {
    "id": "game-germany-reception",
    "title": "game - German Industry Reception",
    "venue": "Museum Ludwig",
    "date": "2025-08-18",
    "time": "19:00",
    "start": "2025-08-18T19:00:00",
    "end": "2025-08-18T22:00:00",
    "price": "Industry members",
    "description": "Official German games industry networking",
    "lat": 50.9408,
    "lng": 6.9579,
    "category": "networking"
  },
  {
    "id": "cosplay-contest-prelims",
    "title": "Cosplay Contest Preliminaries",
    "venue": "Koelnmesse Hall 5.2",
    "date": "2025-08-22",
    "time": "11:00",
    "start": "2025-08-22T11:00:00",
    "end": "2025-08-22T14:00:00",
    "price": "Free with ticket",
    "description": "Cosplay competition preliminaries",
    "lat": 50.9473,
    "lng": 6.9838,
    "category": "contest"
  },
  {
    "id": "cosplay-contest-finals",
    "title": "Cosplay Contest Grand Finals",
    "venue": "Koelnmesse Hall 5.2",
    "date": "2025-08-23",
    "time": "15:00",
    "start": "2025-08-23T15:00:00",
    "end": "2025-08-23T18:00:00",
    "price": "Free with ticket",
    "description": "Grand finale of cosplay competition",
    "lat": 50.9473,
    "lng": 6.9838,
    "category": "contest"
  },
  {
    "id": "board-game-night",
    "title": "Analog Gaming Night",
    "venue": "Hiveworld",
    "date": "2025-08-21",
    "time": "18:00",
    "start": "2025-08-21T18:00:00",
    "end": "2025-08-22T00:00:00",
    "price": "€15",
    "description": "Board games and tabletop RPGs",
    "lat": 50.9354,
    "lng": 6.9313,
    "category": "gaming"
  },
  {
    "id": "influencer-meetup",
    "title": "Content Creator Meetup",
    "venue": "25hours Hotel The Circle",
    "date": "2025-08-22",
    "time": "16:00",
    "start": "2025-08-22T16:00:00",
    "end": "2025-08-22T20:00:00",
    "price": "Creator pass required",
    "description": "Network with YouTubers and streamers",
    "lat": 50.9514,
    "lng": 6.9074,
    "category": "networking"
  },
  {
    "id": "accessibility-summit",
    "title": "Gaming Accessibility Summit",
    "venue": "TH Köln",
    "date": "2025-08-19",
    "time": "11:00",
    "start": "2025-08-19T11:00:00",
    "end": "2025-08-19T15:00:00",
    "price": "Free",
    "description": "Advancing accessibility in games",
    "lat": 50.9244,
    "lng": 6.9267,
    "category": "conference"
  },
  {
    "id": "gamescom-closing",
    "title": "Gamescom 2025 Closing Ceremony",
    "venue": "Koelnmesse Hall 11",
    "date": "2025-08-23",
    "time": "19:00",
    "start": "2025-08-23T19:00:00",
    "end": "2025-08-23T20:30:00",
    "price": "Free with ticket",
    "description": "Official closing with awards",
    "lat": 50.9473,
    "lng": 6.9838,
    "category": "ceremony"
  },
  {
    "id": "2k-games-showcase",
    "title": "2K Games Showcase",
    "venue": "Koelnmesse Hall 6",
    "date": "2025-08-21",
    "time": "11:00",
    "start": "2025-08-21T11:00:00",
    "end": "2025-08-21T19:00:00",
    "price": "Free with ticket",
    "description": "NBA 2K25 and WWE 2K25 demos",
    "lat": 50.9473,
    "lng": 6.9838,
    "category": "showcase"
  },
  {
    "id": "konami-showcase",
    "title": "Konami Gaming Showcase",
    "venue": "Koelnmesse Hall 9",
    "date": "2025-08-20",
    "time": "12:00",
    "start": "2025-08-20T12:00:00",
    "end": "2025-08-20T18:00:00",
    "price": "Free with ticket",
    "description": "Metal Gear and Silent Hill presentations",
    "lat": 50.9473,
    "lng": 6.9838,
    "category": "showcase"
  },
  {
    "id": "focus-entertainment",
    "title": "Focus Entertainment Showcase",
    "venue": "Deutz Bridge Venue",
    "date": "2025-08-19",
    "time": "14:00",
    "start": "2025-08-19T14:00:00",
    "end": "2025-08-19T18:00:00",
    "price": "Press invite",
    "description": "Focus Entertainment game reveals",
    "lat": 50.9364,
    "lng": 6.9658,
    "category": "showcase"
  },
  {
    "id": "paradox-interactive",
    "title": "Paradox Interactive Strategy Night",
    "venue": "Alte Feuerwache",
    "date": "2025-08-20",
    "time": "19:00",
    "start": "2025-08-20T19:00:00",
    "end": "2025-08-20T23:00:00",
    "price": "€30",
    "description": "Strategy gaming showcase and networking",
    "lat": 50.9516,
    "lng": 6.9240,
    "category": "showcase"
  },
  {
    "id": "tekken-8-tournament",
    "title": "Tekken 8 World Tournament",
    "venue": "ESL Studio Cologne",
    "date": "2025-08-22",
    "time": "14:00",
    "start": "2025-08-22T14:00:00",
    "end": "2025-08-22T20:00:00",
    "price": "€25",
    "description": "Official Tekken 8 tournament",
    "lat": 50.9473,
    "lng": 7.0088,
    "category": "tournament"
  },
  {
    "id": "discord-community-day",
    "title": "Discord Community Day",
    "venue": "Kölner Jugendpark",
    "date": "2025-08-21",
    "time": "12:00",
    "start": "2025-08-21T12:00:00",
    "end": "2025-08-21T18:00:00",
    "price": "Free",
    "description": "Discord community meetups and activities",
    "lat": 50.9573,
    "lng": 6.9725,
    "category": "community"
  },
  {
    "id": "nvidia-rtx-showcase",
    "title": "NVIDIA RTX Gaming Showcase",
    "venue": "Saturn Hansaring",
    "date": "2025-08-20",
    "time": "15:00",
    "start": "2025-08-20T15:00:00",
    "end": "2025-08-20T19:00:00",
    "price": "Free",
    "description": "Latest RTX graphics demos",
    "lat": 50.9485,
    "lng": 6.9543,
    "category": "tech"
  },
  {
    "id": "amd-gaming-lounge",
    "title": "AMD Gaming Lounge",
    "venue": "MediaPark",
    "date": "2025-08-21",
    "time": "13:00",
    "start": "2025-08-21T13:00:00",
    "end": "2025-08-21T19:00:00",
    "price": "Free",
    "description": "AMD Radeon gaming showcase",
    "lat": 50.9485,
    "lng": 6.9440,
    "category": "tech"
  },
  {
    "id": "intel-gaming-arena",
    "title": "Intel Extreme Masters Preview",
    "venue": "ESL Arena",
    "date": "2025-08-19",
    "time": "16:00",
    "start": "2025-08-19T16:00:00",
    "end": "2025-08-19T20:00:00",
    "price": "€15",
    "description": "Preview of IEM tournaments",
    "lat": 50.9473,
    "lng": 7.0088,
    "category": "esports"
  },
  {
    "id": "razer-gaming-lounge",
    "title": "Razer Gaming Lounge",
    "venue": "Razer Store Cologne",
    "date": "2025-08-20",
    "time": "11:00",
    "start": "2025-08-20T11:00:00",
    "end": "2025-08-20T20:00:00",
    "price": "Free",
    "description": "Razer gaming peripherals showcase",
    "lat": 50.9367,
    "lng": 6.9495,
    "category": "tech"
  },
  {
    "id": "logitech-g-setup",
    "title": "Logitech G Gaming Setup Showcase",
    "venue": "MediaMarkt Cologne",
    "date": "2025-08-21",
    "time": "12:00",
    "start": "2025-08-21T12:00:00",
    "end": "2025-08-21T18:00:00",
    "price": "Free",
    "description": "Pro gaming setup demonstrations",
    "lat": 50.9406,
    "lng": 6.9572,
    "category": "tech"
  },
  {
    "id": "corsair-pc-showcase",
    "title": "Corsair PC Gaming Showcase",
    "venue": "Alternate Store",
    "date": "2025-08-19",
    "time": "14:00",
    "start": "2025-08-19T14:00:00",
    "end": "2025-08-19T19:00:00",
    "price": "Free",
    "description": "High-end gaming PC demonstrations",
    "lat": 50.9322,
    "lng": 6.9185,
    "category": "tech"
  },
  {
    "id": "asus-rog-experience",
    "title": "ASUS ROG Gaming Experience",
    "venue": "Cyberport Store",
    "date": "2025-08-22",
    "time": "13:00",
    "start": "2025-08-22T13:00:00",
    "end": "2025-08-22T19:00:00",
    "price": "Free",
    "description": "ROG gaming laptops and peripherals",
    "lat": 50.9598,
    "lng": 6.9718,
    "category": "tech"
  },
  {
    "id": "msi-gaming-zone",
    "title": "MSI Gaming Zone",
    "venue": "Mindfactory Showroom",
    "date": "2025-08-20",
    "time": "12:00",
    "start": "2025-08-20T12:00:00",
    "end": "2025-08-20T18:00:00",
    "price": "Free",
    "description": "MSI gaming hardware showcase",
    "lat": 50.9411,
    "lng": 6.9253,
    "category": "tech"
  },
  {
    "id": "alienware-arena",
    "title": "Alienware Gaming Arena",
    "venue": "Dell Experience Store",
    "date": "2025-08-21",
    "time": "14:00",
    "start": "2025-08-21T14:00:00",
    "end": "2025-08-21T20:00:00",
    "price": "Free",
    "description": "Alienware gaming systems showcase",
    "lat": 50.9356,
    "lng": 6.9602,
    "category": "tech"
  },
  {
    "id": "hyperx-gaming-lounge",
    "title": "HyperX Gaming Lounge",
    "venue": "Gaming House Cologne",
    "date": "2025-08-19",
    "time": "15:00",
    "start": "2025-08-19T15:00:00",
    "end": "2025-08-19T21:00:00",
    "price": "Free",
    "description": "HyperX gaming peripherals test zone",
    "lat": 50.9478,
    "lng": 6.9185,
    "category": "tech"
  },
  {
    "id": "astro-gaming-showcase",
    "title": "ASTRO Gaming Audio Experience",
    "venue": "Sound Store Cologne",
    "date": "2025-08-22",
    "time": "14:00",
    "start": "2025-08-22T14:00:00",
    "end": "2025-08-22T19:00:00",
    "price": "Free",
    "description": "Premium gaming audio demonstrations",
    "lat": 50.9389,
    "lng": 6.9478,
    "category": "tech"
  },
  {
    "id": "turtle-beach-audio",
    "title": "Turtle Beach Audio Showcase",
    "venue": "Expert Klein",
    "date": "2025-08-20",
    "time": "13:00",
    "start": "2025-08-20T13:00:00",
    "end": "2025-08-20T18:00:00",
    "price": "Free",
    "description": "Gaming headset demonstrations",
    "lat": 50.9445,
    "lng": 6.9358,
    "category": "tech"
  },
  {
    "id": "secretlab-gaming-chairs",
    "title": "Secretlab Gaming Chair Showcase",
    "venue": "Furniture Store Cologne",
    "date": "2025-08-21",
    "time": "11:00",
    "start": "2025-08-21T11:00:00",
    "end": "2025-08-21T17:00:00",
    "price": "Free",
    "description": "Premium gaming chair showcase",
    "lat": 50.9512,
    "lng": 6.9642,
    "category": "tech"
  },
  {
    "id": "noblechairs-showcase",
    "title": "noblechairs Gaming Furniture",
    "venue": "Design Store Cologne",
    "date": "2025-08-19",
    "time": "12:00",
    "start": "2025-08-19T12:00:00",
    "end": "2025-08-19T18:00:00",
    "price": "Free",
    "description": "Gaming furniture and ergonomics",
    "lat": 50.9367,
    "lng": 6.9284,
    "category": "tech"
  },
  {
    "id": "elgato-streaming",
    "title": "Elgato Streaming Workshop",
    "venue": "Creator Space Cologne",
    "date": "2025-08-22",
    "time": "15:00",
    "start": "2025-08-22T15:00:00",
    "end": "2025-08-22T18:00:00",
    "price": "€20",
    "description": "Professional streaming setup workshop",
    "lat": 50.9423,
    "lng": 6.9576,
    "category": "workshop"
  },
  {
    "id": "press-conference-day1",
    "title": "Press Conference Day 1",
    "venue": "Koelnmesse Press Center",
    "date": "2025-08-19",
    "time": "09:00",
    "start": "2025-08-19T09:00:00",
    "end": "2025-08-19T12:00:00",
    "price": "Press only",
    "description": "Official press conferences",
    "lat": 50.9473,
    "lng": 6.9838,
    "category": "press"
  },
  {
    "id": "press-conference-day2",
    "title": "Press Conference Day 2",
    "venue": "Koelnmesse Press Center",
    "date": "2025-08-20",
    "time": "09:00",
    "start": "2025-08-20T09:00:00",
    "end": "2025-08-20T12:00:00",
    "price": "Press only",
    "description": "Publisher press conferences",
    "lat": 50.9473,
    "lng": 6.9838,
    "category": "press"
  },
  {
    "id": "gamescom-awards",
    "title": "Gamescom Awards 2025",
    "venue": "Koelnmesse Hall 11",
    "date": "2025-08-21",
    "time": "18:00",
    "start": "2025-08-21T18:00:00",
    "end": "2025-08-21T19:30:00",
    "price": "Invite only",
    "description": "Official Gamescom Awards ceremony",
    "lat": 50.9473,
    "lng": 6.9838,
    "category": "awards"
  }
]