[
  {
    "id": "gamescom-opening-night-live-2025",
    "title": "Gamescom Opening Night Live 2025",
    "venue": "Koelnmesse Hall 11",
    "date": "2025-08-19",
    "time": "20:00",
    "start": "2025-08-19T20:00:00",
    "end": "2025-08-19T22:30:00",
    "price": "Free with Gamescom ticket",
    "description": "Geoff Keighley hosts the official kickoff to Gamescom with world premieres, exclusive announcements, and special guests",
    "lat": 50.9473,
    "lng": 6.9838,
    "category": "opening",
    "tags": ["official", "premiere", "networking"]
  },
  {
    "id": "devcom-developer-conference-2025",
    "title": "Devcom 2025 Developer Conference",
    "venue": "Koelnmesse Congress Centre East",
    "date": "2025-08-17",
    "time": "09:00",
    "start": "2025-08-17T09:00:00",
    "end": "2025-08-19T18:00:00",
    "price": "€449 (Early Bird €399)",
    "description": "Europe's leading game developer conference featuring talks, workshops, and networking opportunities",
    "lat": 50.9473,
    "lng": 6.9838,
    "category": "conference",
    "tags": ["professional", "development", "b2b"]
  },
  {
    "id": "xbox-fanfest-2025",
    "title": "Xbox FanFest 2025",
    "venue": "Gloria Theater",
    "date": "2025-08-20",
    "time": "19:00",
    "start": "2025-08-20T19:00:00",
    "end": "2025-08-21T01:00:00",
    "price": "Invite only (apply online)",
    "description": "Exclusive Xbox celebration with hands-on gameplay, developer meet & greets, and surprises",
    "lat": 50.9383,
    "lng": 6.9580,
    "category": "party",
    "tags": ["xbox", "exclusive", "gaming"]
  },
  {
    "id": "playstation-experience-lounge",
    "title": "PlayStation Experience Lounge",
    "venue": "Hyatt Regency Cologne",
    "date": "2025-08-20",
    "time": "18:00",
    "start": "2025-08-20T18:00:00",
    "end": "2025-08-20T23:00:00",
    "price": "VIP invite only",
    "description": "Premium PlayStation showcase with upcoming titles, PSVR2 demos, and industry networking",
    "lat": 50.9413,
    "lng": 6.9736,
    "category": "vip",
    "tags": ["playstation", "exclusive", "industry"]
  },
  {
    "id": "indie-arena-booth-party",
    "title": "Indie Arena Booth Afterparty",
    "venue": "Stadtgarten",
    "date": "2025-08-21",
    "time": "20:00",
    "start": "2025-08-21T20:00:00",
    "end": "2025-08-22T02:00:00",
    "price": "€15 (Free for IAB exhibitors)",
    "description": "Celebrate indie gaming with developers, publishers, and players. Live music and local beer",
    "lat": 50.9229,
    "lng": 6.9302,
    "category": "party",
    "tags": ["indie", "networking", "casual"]
  },
  {
    "id": "nintendo-direct-viewing-party",
    "title": "Nintendo Direct @ Gamescom Viewing Party",
    "venue": "Cinedom Cologne",
    "date": "2025-08-19",
    "time": "16:00",
    "start": "2025-08-19T16:00:00",
    "end": "2025-08-19T18:00:00",
    "price": "€12",
    "description": "Watch the Nintendo Direct presentation on the big screen with fellow fans",
    "lat": 50.9497,
    "lng": 6.9442,
    "category": "viewing",
    "tags": ["nintendo", "community", "presentation"]
  },
  {
    "id": "ubisoft-forward-live",
    "title": "Ubisoft Forward Live",
    "venue": "Musical Dome Cologne",
    "date": "2025-08-20",
    "time": "21:00",
    "start": "2025-08-20T21:00:00",
    "end": "2025-08-20T23:00:00",
    "price": "Free (registration required)",
    "description": "Live presentation of upcoming Ubisoft titles with gameplay reveals and developer insights",
    "lat": 50.9513,
    "lng": 6.9778,
    "category": "presentation",
    "tags": ["ubisoft", "reveal", "official"]
  },
  {
    "id": "ea-play-2025",
    "title": "EA Play 2025",
    "venue": "Koelnmesse Hall 8",
    "date": "2025-08-21",
    "time": "10:00",
    "start": "2025-08-21T10:00:00",
    "end": "2025-08-21T20:00:00",
    "price": "Free with Gamescom ticket",
    "description": "Play EA's latest games including EA Sports FC 25, Need for Speed, and Battlefield",
    "lat": 50.9473,
    "lng": 6.9838,
    "category": "showcase",
    "tags": ["ea", "playable", "sports"]
  },
  {
    "id": "twitch-party-2025",
    "title": "Twitch Party Gamescom 2025",
    "venue": "Bootshaus",
    "date": "2025-08-22",
    "time": "22:00",
    "start": "2025-08-22T22:00:00",
    "end": "2025-08-23T04:00:00",
    "price": "Invite only",
    "description": "The legendary Twitch party with top streamers, DJs, and surprise guests",
    "lat": 50.962,
    "lng": 6.996,
    "category": "party",
    "tags": ["twitch", "streaming", "exclusive"]
  },
  {
    "id": "epic-games-mixer",
    "title": "Epic Games Developer Mixer",
    "venue": "Die Wohngemeinschaft",
    "date": "2025-08-18",
    "time": "19:00",
    "start": "2025-08-18T19:00:00",
    "end": "2025-08-18T23:00:00",
    "price": "Developer pass required",
    "description": "Network with Unreal Engine developers and Epic Games team members",
    "lat": 50.9356,
    "lng": 6.9397,
    "category": "networking",
    "tags": ["epic", "unreal", "development"]
  },
  {
    "id": "retro-gaming-night",
    "title": "Retro Gaming Night",
    "venue": "Arcade Cologne",
    "date": "2025-08-19",
    "time": "18:00",
    "start": "2025-08-19T18:00:00",
    "end": "2025-08-20T00:00:00",
    "price": "€20",
    "description": "Classic arcade games, retro console tournaments, and 80s/90s music",
    "lat": 50.9385,
    "lng": 6.9594,
    "category": "party",
    "tags": ["retro", "arcade", "nostalgia"]
  },
  {
    "id": "women-in-games-brunch",
    "title": "Women in Games Networking Brunch",
    "venue": "Excelsior Hotel Ernst",
    "date": "2025-08-20",
    "time": "10:00",
    "start": "2025-08-20T10:00:00",
    "end": "2025-08-20T13:00:00",
    "price": "€45",
    "description": "Connect with women professionals in the gaming industry",
    "lat": 50.9383,
    "lng": 6.9511,
    "category": "networking",
    "tags": ["diversity", "professional", "brunch"]
  },
  {
    "id": "valve-steam-deck-showcase",
    "title": "Steam Deck Verified Showcase",
    "venue": "Saturn Cologne",
    "date": "2025-08-21",
    "time": "14:00",
    "start": "2025-08-21T14:00:00",
    "end": "2025-08-21T18:00:00",
    "price": "Free",
    "description": "Try the latest Steam Deck verified games and meet Valve representatives",
    "lat": 50.9406,
    "lng": 6.9572,
    "category": "showcase",
    "tags": ["valve", "steam", "handheld"]
  },
  {
    "id": "bethesda-game-days",
    "title": "Bethesda Game Days",
    "venue": "Marriott Cologne",
    "date": "2025-08-18",
    "time": "11:00",
    "start": "2025-08-18T11:00:00",
    "end": "2025-08-18T20:00:00",
    "price": "Registration required",
    "description": "Exclusive gameplay sessions for Starfield DLC, Elder Scrolls updates, and more",
    "lat": 50.9474,
    "lng": 6.9766,
    "category": "showcase",
    "tags": ["bethesda", "rpg", "exclusive"]
  },
  {
    "id": "speedrun-marathon-2025",
    "title": "Gamescom Speedrun Marathon",
    "venue": "Koelnmesse Hall 10.2",
    "date": "2025-08-22",
    "time": "12:00",
    "start": "2025-08-22T12:00:00",
    "end": "2025-08-22T22:00:00",
    "price": "Free with Gamescom ticket",
    "description": "Watch top speedrunners break records live on stage",
    "lat": 50.9473,
    "lng": 6.9838,
    "category": "tournament",
    "tags": ["speedrun", "competition", "community"]
  },
  {
    "id": "square-enix-fan-festival",
    "title": "Square Enix Fan Festival",
    "venue": "Tanzbrunnen",
    "date": "2025-08-21",
    "time": "16:00",
    "start": "2025-08-21T16:00:00",
    "end": "2025-08-21T23:00:00",
    "price": "€35",
    "description": "Final Fantasy, Kingdom Hearts, and more with cosplay contest and live music",
    "lat": 50.9478,
    "lng": 6.9716,
    "category": "festival",
    "tags": ["square-enix", "jrpg", "cosplay"]
  },
  {
    "id": "riot-games-arena",
    "title": "Riot Games Arena Experience",
    "venue": "Lanxess Arena",
    "date": "2025-08-23",
    "time": "13:00",
    "start": "2025-08-23T13:00:00",
    "end": "2025-08-23T21:00:00",
    "price": "€30-€60",
    "description": "League of Legends and Valorant tournaments with pro players",
    "lat": 50.9385,
    "lng": 6.9830,
    "category": "esports",
    "tags": ["riot", "esports", "tournament"]
  },
  {
    "id": "activision-blizzard-booth-party",
    "title": "Activision Blizzard Booth Party",
    "venue": "Koelnmesse Hall 7",
    "date": "2025-08-22",
    "time": "18:00",
    "start": "2025-08-22T18:00:00",
    "end": "2025-08-22T22:00:00",
    "price": "Free with badge",
    "description": "Celebrate Call of Duty, Overwatch 2, and Diablo with the dev teams",
    "lat": 50.9473,
    "lng": 6.9838,
    "category": "party",
    "tags": ["activision", "blizzard", "multiplayer"]
  },
  {
    "id": "cd-projekt-red-night-city-party",
    "title": "CD Projekt Red Night City Wire Party",
    "venue": "Club Bahnhof Ehrenfeld",
    "date": "2025-08-20",
    "time": "21:00",
    "start": "2025-08-20T21:00:00",
    "end": "2025-08-21T03:00:00",
    "price": "Invite only",
    "description": "Cyberpunk themed party celebrating The Witcher and Cyberpunk franchises",
    "lat": 50.9516,
    "lng": 6.9183,
    "category": "party",
    "tags": ["cdpr", "cyberpunk", "exclusive"]
  },
  {
    "id": "game-pass-insider-meetup",
    "title": "Xbox Game Pass Insider Meetup",
    "venue": "Microsoft Germany Office",
    "date": "2025-08-19",
    "time": "15:00",
    "start": "2025-08-19T15:00:00",
    "end": "2025-08-19T18:00:00",
    "price": "Game Pass Ultimate required",
    "description": "Exclusive preview of upcoming Game Pass titles with Phil Spencer Q&A",
    "lat": 50.9419,
    "lng": 6.9732,
    "category": "meetup",
    "tags": ["xbox", "gamepass", "insider"]
  },
  {
    "id": "bandai-namco-anime-night",
    "title": "Bandai Namco Anime Game Night",
    "venue": "Japanisches Kulturinstitut",
    "date": "2025-08-21",
    "time": "19:00",
    "start": "2025-08-21T19:00:00",
    "end": "2025-08-21T23:00:00",
    "price": "€25",
    "description": "Dragon Ball, Naruto, and One Piece gaming showcase with anime screening",
    "lat": 50.9318,
    "lng": 6.9395,
    "category": "showcase",
    "tags": ["bandai-namco", "anime", "fighting"]
  },
  {
    "id": "sega-arcade-paradise",
    "title": "SEGA Arcade Paradise",
    "venue": "Odysseum",
    "date": "2025-08-20",
    "time": "16:00",
    "start": "2025-08-20T16:00:00",
    "end": "2025-08-20T22:00:00",
    "price": "€18",
    "description": "Classic and new SEGA arcade games with Sonic anniversary celebration",
    "lat": 50.9406,
    "lng": 6.9297,
    "category": "arcade",
    "tags": ["sega", "sonic", "arcade"]
  },
  {
    "id": "unity-unite-2025",
    "title": "Unity Unite Gamescom 2025",
    "venue": "Design Post",
    "date": "2025-08-18",
    "time": "10:00",
    "start": "2025-08-18T10:00:00",
    "end": "2025-08-18T18:00:00",
    "price": "Free (registration required)",
    "description": "Unity engine workshops, demos, and roadmap reveals",
    "lat": 50.9711,
    "lng": 6.9440,
    "category": "conference",
    "tags": ["unity", "development", "workshop"]
  },
  {
    "id": "capcom-fighters-lounge",
    "title": "Capcom Fighters Lounge",
    "venue": "Fight Club Cologne",
    "date": "2025-08-22",
    "time": "17:00",
    "start": "2025-08-22T17:00:00",
    "end": "2025-08-22T23:00:00",
    "price": "€20",
    "description": "Street Fighter 6 tournament with pro players and exclusive reveals",
    "lat": 50.9357,
    "lng": 6.9282,
    "category": "tournament",
    "tags": ["capcom", "fighting", "esports"]
  },
  {
    "id": "meta-quest-vr-showcase",
    "title": "Meta Quest VR Showcase",
    "venue": "Cologne Game Lab",
    "date": "2025-08-19",
    "time": "13:00",
    "start": "2025-08-19T13:00:00",
    "end": "2025-08-19T19:00:00",
    "price": "Free",
    "description": "Try the latest VR games and experiences on Meta Quest 3",
    "lat": 50.9244,
    "lng": 6.9267,
    "category": "showcase",
    "tags": ["meta", "vr", "quest"]
  },
  {
    "id": "google-stadia-cloud-gaming",
    "title": "Google Play Games Showcase",
    "venue": "Google Zukunftswerkstatt",
    "date": "2025-08-20",
    "time": "14:00",
    "start": "2025-08-20T14:00:00",
    "end": "2025-08-20T18:00:00",
    "price": "Free",
    "description": "Mobile and cloud gaming innovations with Android gaming updates",
    "lat": 50.9489,
    "lng": 6.9439,
    "category": "showcase",
    "tags": ["google", "mobile", "cloud"]
  },
  {
    "id": "game-music-concert-2025",
    "title": "Gamescom Game Music Concert",
    "venue": "Philharmonie Cologne",
    "date": "2025-08-23",
    "time": "20:00",
    "start": "2025-08-23T20:00:00",
    "end": "2025-08-23T22:30:00",
    "price": "€45-€85",
    "description": "WDR Orchestra performs iconic video game soundtracks",
    "lat": 50.9321,
    "lng": 6.9472,
    "category": "concert",
    "tags": ["music", "orchestra", "culture"]
  },
  {
    "id": "future-games-show",
    "title": "Future Games Show Live",
    "venue": "MMC Studios",
    "date": "2025-08-21",
    "time": "20:00",
    "start": "2025-08-21T20:00:00",
    "end": "2025-08-21T21:30:00",
    "price": "Free stream",
    "description": "Live broadcast featuring 50+ upcoming games",
    "lat": 50.9693,
    "lng": 6.9838,
    "category": "presentation",
    "tags": ["showcase", "indie", "aaa"]
  },
  {
    "id": "koch-media-prime-matter",
    "title": "Prime Matter Showcase",
    "venue": "Carlswerk",
    "date": "2025-08-19",
    "time": "17:00",
    "start": "2025-08-19T17:00:00",
    "end": "2025-08-19T21:00:00",
    "price": "Press/Trade only",
    "description": "Koch Media's premium gaming label showcase",
    "lat": 50.9819,
    "lng": 6.9114,
    "category": "showcase",
    "tags": ["publisher", "prime-matter", "b2b"]
  },
  {
    "id": "embracer-group-party",
    "title": "Embracer Group Publisher Party",
    "venue": "Flora Cologne",
    "date": "2025-08-20",
    "time": "20:00",
    "start": "2025-08-20T20:00:00",
    "end": "2025-08-21T01:00:00",
    "price": "Industry invite",
    "description": "THQ Nordic, Deep Silver, and more celebrate together",
    "lat": 50.9597,
    "lng": 6.9718,
    "category": "party",
    "tags": ["embracer", "publisher", "networking"]
  },
  {
    "id": "games-germany-reception",
    "title": "game - German Games Industry Reception",
    "venue": "Museum Ludwig",
    "date": "2025-08-18",
    "time": "19:00",
    "start": "2025-08-18T19:00:00",
    "end": "2025-08-18T22:00:00",
    "price": "Industry members",
    "description": "Official German games industry networking reception",
    "lat": 50.9408,
    "lng": 6.9579,
    "category": "networking",
    "tags": ["industry", "germany", "official"]
  },
  {
    "id": "cosplay-contest-finals",
    "title": "Gamescom Cosplay Contest Finals",
    "venue": "Koelnmesse Hall 5.2",
    "date": "2025-08-23",
    "time": "15:00",
    "start": "2025-08-23T15:00:00",
    "end": "2025-08-23T18:00:00",
    "price": "Free with ticket",
    "description": "Grand finale of the official cosplay competition",
    "lat": 50.9473,
    "lng": 6.9838,
    "category": "contest",
    "tags": ["cosplay", "competition", "community"]
  },
  {
    "id": "board-game-night",
    "title": "Analog Gaming Night",
    "venue": "Hiveworld",
    "date": "2025-08-21",
    "time": "18:00",
    "start": "2025-08-21T18:00:00",
    "end": "2025-08-22T00:00:00",
    "price": "€15",
    "description": "Board games, card games, and tabletop RPGs",
    "lat": 50.9354,
    "lng": 6.9313,
    "category": "gaming",
    "tags": ["boardgame", "tabletop", "social"]
  },
  {
    "id": "influencer-meetup-2025",
    "title": "Content Creator & Influencer Meetup",
    "venue": "25hours Hotel The Circle",
    "date": "2025-08-22",
    "time": "16:00",
    "start": "2025-08-22T16:00:00",
    "end": "2025-08-22T20:00:00",
    "price": "Creator pass required",
    "description": "Network with YouTubers, streamers, and social media influencers",
    "lat": 50.9514,
    "lng": 6.9074,
    "category": "networking",
    "tags": ["influencer", "content", "social"]
  },
  {
    "id": "accessibility-gaming-panel",
    "title": "Gaming Accessibility Summit",
    "venue": "TH Köln",
    "date": "2025-08-19",
    "time": "11:00",
    "start": "2025-08-19T11:00:00",
    "end": "2025-08-19T15:00:00",
    "price": "Free",
    "description": "Advancing accessibility in game design and development",
    "lat": 50.9244,
    "lng": 6.9267,
    "category": "conference",
    "tags": ["accessibility", "inclusion", "development"]
  },
  {
    "id": "closing-ceremony-2025",
    "title": "Gamescom 2025 Closing Ceremony",
    "venue": "Koelnmesse Hall 11",
    "date": "2025-08-23",
    "time": "19:00",
    "start": "2025-08-23T19:00:00",
    "end": "2025-08-23T20:30:00",
    "price": "Free with ticket",
    "description": "Official closing with awards and special announcements",
    "lat": 50.9473,
    "lng": 6.9838,
    "category": "ceremony",
    "tags": ["official", "awards", "closing"]
  }
]